{"type":"Topology","arcs":[],"objects":{"hurricane_evac_center":{"type":"GeometryCollection","geometries":[{"type":"Point","coordinates":[-73.96649064875537,40.64971682840403],"properties":{"NAME":"PS 249","BLDG_ID":"K249","ADDRESS":"18 Marlborough Road","CITY":"Brooklyn","ZIP":11226,"Borocode":3,"ACCESSIBLE":"N","X":993548.906915,"Y":175984.515535,"ACC_FEAT":"","CROSS1":"Caton Avenue","CROSS2":"Church Avenue"}},{"type":"Point","coordinates":[-73.86595535051643,40.83787645251882],"properties":{"NAME":"PS 102","BLDG_ID":"X102","ADDRESS":"1827 Archer St","CITY":"Bronx","ZIP":10460,"Borocode":2,"ACCESSIBLE":"N","X":1021341.52357,"Y":244563.684479,"ACC_FEAT":"","CROSS1":"Taylor Avenue","CROSS2":"Thieriot Avenue"}},{"type":"Point","coordinates":[-73.91077046657301,40.85139563383349],"properties":{"NAME":"PS 306","BLDG_ID":"X306","ADDRESS":"40 West Tremont Avenue","CITY":"Bronx","ZIP":10453,"Borocode":2,"ACCESSIBLE":"N","X":1008935.84596,"Y":249473.424331,"ACC_FEAT":"","CROSS1":"W 177 Street","CROSS2":"Jerome Avenue"}},{"type":"Point","coordinates":[-73.96139501254699,40.66886724265529],"properties":{"NAME":"Clara Barton HS","BLDG_ID":"K600","ADDRESS":"901 Classon Avenue","CITY":"Brooklyn","ZIP":11225,"Borocode":3,"ACCESSIBLE":"N","X":994959.819776,"Y":182962.126252,"ACC_FEAT":"","CROSS1":"President Street","CROSS2":"Carroll Street"}},{"type":"Point","coordinates":[-74.1043351366445,40.60901043967348],"properties":{"NAME":"Petrides Complex","BLDG_ID":"R880","ADDRESS":"715 Ocean Terrace","CITY":"Staten Island","ZIP":10301,"Borocode":5,"ACCESSIBLE":"N","X":955280.795131,"Y":161169.568459,"ACC_FEAT":"","CROSS1":"Milford Drive","CROSS2":"Witteman Place"}},{"type":"Point","coordinates":[-73.92619281325027,40.855606979036445],"properties":{"NAME":"George Washington Educational Campus","BLDG_ID":"M465","ADDRESS":"549 Audobon Avenue","CITY":"New York","ZIP":10040,"Borocode":1,"ACCESSIBLE":"N","X":1004667.94603,"Y":251003.807097,"ACC_FEAT":"","CROSS1":"Ft George Avenue","CROSS2":"W 190 Street"}},{"type":"Point","coordinates":[-74.14531997041665,40.622880849016276],"properties":{"NAME":"IS 51","BLDG_ID":"R051","ADDRESS":"20 Houston Street","CITY":"Staten Island","ZIP":10302,"Borocode":5,"ACCESSIBLE":"N","X":943909.373649,"Y":166239.130826,"ACC_FEAT":"","CROSS1":"Willowbrook Road","CROSS2":"Houston Lane"}},{"type":"Point","coordinates":[-73.91966598273278,40.83550093803296],"properties":{"NAME":"PS - IS 218","BLDG_ID":"X235","ADDRESS":"1220 Gerard Avenue","CITY":"Bronx","ZIP":10452,"Borocode":2,"ACCESSIBLE":"Y","X":1006480.20356,"Y":243680.011049,"ACC_FEAT":"The main/accessible entrance to this location for sheltering purposes is 1220 Gerard Avenue, Bronx (Close to the intersection with East 167th Street)","CROSS1":"E 167 Street","CROSS2":"E 168 Street"}},{"type":"Point","coordinates":[-73.80266650433421,40.70966468186901],"properties":{"NAME":"Hillcrest HS","BLDG_ID":"Q505","ADDRESS":"160-05 Highland Avenue","CITY":"Jamaica","ZIP":11432,"Borocode":4,"ACCESSIBLE":"N","X":1038959.20684,"Y":197885.084923,"ACC_FEAT":"","CROSS1":"Parsons Blvd","CROSS2":"162 Street"}},{"type":"Point","coordinates":[-73.9764422497089,40.68896406995197],"properties":{"NAME":"Brooklyn Tech HS","BLDG_ID":"K430","ADDRESS":"29 Ft Greene Place","CITY":"Brooklyn","ZIP":11217,"Borocode":3,"ACCESSIBLE":"Y","X":990783.59322,"Y":190282.496125,"ACC_FEAT":"The main/accessible entrance to this location for sheltering purposes is on S. Elliott Place, Brooklyn (Between Dekalb Avenue and Lafayette Avenue)","CROSS1":"DeKalb Avenue","CROSS2":"Lafayette Avenue"}},{"type":"Point","coordinates":[-73.9141772577939,40.88806687693683],"properties":{"NAME":"MS - HS 141","BLDG_ID":"X141","ADDRESS":"660 W 237 Street","CITY":"Bronx","ZIP":10463,"Borocode":2,"ACCESSIBLE":"N","X":1007980.26421,"Y":262833.247677,"ACC_FEAT":"","CROSS1":"Hudson Manor Terrace","CROSS2":"Independence Avenue"}},{"type":"Point","coordinates":[-73.92945518400414,40.74350325769917],"properties":{"NAME":"Aviation HS","BLDG_ID":"Q610","ADDRESS":"45-30 36 Street","CITY":"Long Island City","ZIP":11101,"Borocode":4,"ACCESSIBLE":"N","X":1003798.35623,"Y":210159.775596,"ACC_FEAT":"","CROSS1":"Queens Blvd","CROSS2":"47 Avenue"}},{"type":"Point","coordinates":[-73.9117227895634,40.66796306504499],"properties":{"NAME":"PS 327","BLDG_ID":"K327","ADDRESS":"111 Bristol Street","CITY":"Brooklyn","ZIP":11212,"Borocode":3,"ACCESSIBLE":"N","X":1008739.73218,"Y":182642.688242,"ACC_FEAT":"","CROSS1":"Pitkin Avenue","CROSS2":"Sutter Avenue"}},{"type":"Point","coordinates":[-73.97097309441794,40.79146987286674],"properties":{"NAME":"IS 118","BLDG_ID":"M118","ADDRESS":"154 W 93 Street","CITY":"New York","ZIP":10025,"Borocode":1,"ACCESSIBLE":"Y","X":992287.961602,"Y":227629.061196,"ACC_FEAT":"The main/accessible entrance to this location for sheltering purposes is 154 West 93rd Street, Manhattan (Between Columbus Avenue and Amsterdam Avenue)","CROSS1":"Amsterdam Avenue","CROSS2":"Columbus Avenue"}},{"type":"Point","coordinates":[-74.00454073052113,40.65281377717279],"properties":{"NAME":"PS 24","BLDG_ID":"K024","ADDRESS":"427 38 Street","CITY":"Brooklyn","ZIP":11232,"Borocode":3,"ACCESSIBLE":"N","X":982990.451982,"Y":177111.073649,"ACC_FEAT":"","CROSS1":"4 Avenue","CROSS2":"5 Avenue"}},{"type":"Point","coordinates":[-73.90923074458495,40.71158730208421],"properties":{"NAME":"Grover Cleveland HS","BLDG_ID":"Q485","ADDRESS":"21-27 Himrod Street","CITY":"Ridgewood","ZIP":11385,"Borocode":4,"ACCESSIBLE":"N","X":1009414.59139,"Y":198536.969774,"ACC_FEAT":"","CROSS1":"Grandview Avenue","CROSS2":"Tonsor Street"}},{"type":"Point","coordinates":[-73.97869690188661,40.66931602293657],"properties":{"NAME":"John Jay Educational Campus","BLDG_ID":"K460","ADDRESS":"237 7 Avenue","CITY":"Brooklyn","ZIP":11215,"Borocode":3,"ACCESSIBLE":"N","X":990160.058706,"Y":183123.988461,"ACC_FEAT":"","CROSS1":"4 Street","CROSS2":"5 Street"}},{"type":"Point","coordinates":[-73.84474899287966,40.72979387990295],"properties":{"NAME":"Forest Hills HS","BLDG_ID":"Q440","ADDRESS":"67-01 110 Street","CITY":"Forest Hills","ZIP":11375,"Borocode":4,"ACCESSIBLE":"N","X":1027279.25973,"Y":205195.276667,"ACC_FEAT":"","CROSS1":"66 Road","CROSS2":"67 Road"}},{"type":"Point","coordinates":[-73.91902243306747,40.827485274851455],"properties":{"NAME":"HS of Law, Gov't and Justice","BLDG_ID":"X460","ADDRESS":"244 E 163 Street","CITY":"Bronx","ZIP":10451,"Borocode":2,"ACCESSIBLE":"Y","X":1006660.98437,"Y":240759.77542,"ACC_FEAT":"The main/accessible entrance to this location for sheltering purposes is  244 East 163rd Street (Between Grant Avenue and Sherman Avenue)","CROSS1":"Sherman Avenue","CROSS2":"Grant Avenue"}},{"type":"Point","coordinates":[-73.88531457930758,40.815687829915134],"properties":{"NAME":"IS 201","BLDG_ID":"X074","ADDRESS":"730 Bryant Avenue","CITY":"Bronx","ZIP":10474,"Borocode":2,"ACCESSIBLE":"N","X":1015995.27246,"Y":236471.961489,"ACC_FEAT":"","CROSS1":"Lafayette Avenue","CROSS2":"Spofford Avenue"}},{"type":"Point","coordinates":[-73.93570880866474,40.83936630932722],"properties":{"NAME":"IS 90","BLDG_ID":"M090","ADDRESS":"21 Jumel Place","CITY":"New York","ZIP":10032,"Borocode":1,"ACCESSIBLE":"N","X":1002039.84564,"Y":245084.644395,"ACC_FEAT":"","CROSS1":"Edgecombe Avenue","CROSS2":"W 167 Street"}},{"type":"Point","coordinates":[-73.88992098214166,40.84381695166747],"properties":{"NAME":"PS 211","BLDG_ID":"X193","ADDRESS":"1919 Prospect Avenue","CITY":"Bronx","ZIP":10457,"Borocode":2,"ACCESSIBLE":"N","X":1014707.34459,"Y":246718.788108,"ACC_FEAT":"","CROSS1":"E 176 Street","CROSS2":"East Tremont Avenue"}},{"type":"Point","coordinates":[-73.82135843808759,40.7349838551495],"properties":{"NAME":"Townsend Harris HS","BLDG_ID":"Q515","ADDRESS":"149-11 Melbourne Avenue","CITY":"Flushing","ZIP":11367,"Borocode":4,"ACCESSIBLE":"Y","X":1033758.24448,"Y":207098.497926,"ACC_FEAT":"The main/accessible entrance to this location for sheltering purposes is on 149th Street (Close to the intersection with Melbourne Avenue)","CROSS1":"149 Street","CROSS2":"150 Street"}},{"type":"Point","coordinates":[-73.78520317220101,40.70767368939047],"properties":{"NAME":"PS - IS 268","BLDG_ID":"Q268","ADDRESS":"92-07 175 Street","CITY":"Jamaica","ZIP":11433,"Borocode":4,"ACCESSIBLE":"Y","X":1043802.51638,"Y":197171.097834,"ACC_FEAT":"The main/accessible entrance to this location for sheltering purposes is 92-07 175th Street, Queens (Close to the intersection with Jamaica Avenue)","CROSS1":"Jamaica Avenue","CROSS2":"93 Avenue"}},{"type":"Point","coordinates":[-73.91928917484027,40.69770188900659],"properties":{"NAME":"IS 383","BLDG_ID":"K383","ADDRESS":"1300 Greene Avenue","CITY":"Brooklyn","ZIP":11237,"Borocode":3,"ACCESSIBLE":"N","X":1006630.72918,"Y":193475.371629,"ACC_FEAT":"","CROSS1":"Knickerbocker Avenue","CROSS2":"Wilson Avenue"}},{"type":"Point","coordinates":[-73.95600463232694,40.810764348659816],"properties":{"NAME":"PS 125","BLDG_ID":"M125","ADDRESS":"425 W 123 Street","CITY":"New York","ZIP":10027,"Borocode":1,"ACCESSIBLE":"Y","X":996429.202992,"Y":234660.43985,"ACC_FEAT":"The main/accessible entrance to this location for sheltering purposes is 425 West 123rd Street, Manhattan (Between Morningside Avenue and Amsterdam Avenue)","CROSS1":"Amsterdam Avenue","CROSS2":"Morningside Avenue"}},{"type":"Point","coordinates":[-73.98563183237825,40.77490822903959],"properties":{"NAME":"Martin Luther King Jr. HS","BLDG_ID":"M490","ADDRESS":"122 Amsterdam Avenue","CITY":"New York","ZIP":10023,"Borocode":1,"ACCESSIBLE":"N","X":988229.941831,"Y":221594.087045,"ACC_FEAT":"","CROSS1":"W 66 Street","CROSS2":"W 65 Street"}},{"type":"Point","coordinates":[-73.96588949687064,40.759075981150545],"properties":{"NAME":"Midtown East Campus (PS 59)","BLDG_ID":"M488","ADDRESS":"233 E 56 Street","CITY":"New York","ZIP":10022,"Borocode":1,"ACCESSIBLE":"Y","X":993700.206809,"Y":215827.389261,"ACC_FEAT":"The main/accessible entrance to this location for sheltering purposes is 233 East 56th Street, Manhattan (Between 2nd Avenue and 3rd Avenue)","CROSS1":"3 Avenue","CROSS2":"2 Avenue"}},{"type":"Point","coordinates":[-73.99360345544967,40.71624662834544],"properties":{"NAME":"IS 131","BLDG_ID":"M131","ADDRESS":"100 Hester Street","CITY":"New York","ZIP":10002,"Borocode":1,"ACCESSIBLE":"N","X":986023.607661,"Y":200221.531365,"ACC_FEAT":"","CROSS1":"Forsyth Street","CROSS2":"Eldridge Street"}},{"type":"Point","coordinates":[-73.94578845185323,40.81511493669136],"properties":{"NAME":"PS 92","BLDG_ID":"M092","ADDRESS":"222 W 134 Street","CITY":"New York","ZIP":10030,"Borocode":1,"ACCESSIBLE":"N","X":999256.265579,"Y":236247.099078,"ACC_FEAT":"","CROSS1":"Frederick Douglass Blvd","CROSS2":"7 Avenue"}},{"type":"Point","coordinates":[-73.94462935029937,40.82999559032642],"properties":{"NAME":"PS - IS 210","BLDG_ID":"M093","ADDRESS":"501-503 W 152 Street","CITY":"New York","ZIP":10031,"Borocode":1,"ACCESSIBLE":"N","X":999573.680299,"Y":241668.859888,"ACC_FEAT":"","CROSS1":"Broadway","CROSS2":"Amsterdam Avenue"}},{"type":"Point","coordinates":[-73.8874243575625,40.75426274508144],"properties":{"NAME":"IS 145","BLDG_ID":"Q145","ADDRESS":"33-34 80 Street","CITY":"Jackson Heights","ZIP":11372,"Borocode":4,"ACCESSIBLE":"N","X":1015440.04719,"Y":214091.972128,"ACC_FEAT":"","CROSS1":"Northern Blvd","CROSS2":"34 Avenue"}},{"type":"Point","coordinates":[-73.78970338673682,40.76499553604438],"properties":{"NAME":"JHS 25","BLDG_ID":"Q025","ADDRESS":"34-65 192 Street","CITY":"Flushing","ZIP":11355,"Borocode":4,"ACCESSIBLE":"N","X":1042504.70434,"Y":218052.162043,"ACC_FEAT":"","CROSS1":"34 Avenue","CROSS2":"35 Avenue"}},{"type":"Point","coordinates":[-73.72886692275635,40.744465558979954],"properties":{"NAME":"Queens HS of Teach., Lib. Arts & Sci.","BLDG_ID":"Q566","ADDRESS":"74-20 Commonwealth Boulevard","CITY":"Bellerose","ZIP":11426,"Borocode":4,"ACCESSIBLE":"Y","X":1059380.12761,"Y":210618.771398,"ACC_FEAT":"The main/accessible entrance to this location for sheltering purposes is 74-20 Commonwealth Boulevard, Queens (Close to the intersection with Cross Island Parkway and Grand Central Parkway)","CROSS1":"Grand Central Pkwy","CROSS2":"76 Avenue"}},{"type":"Point","coordinates":[-73.82403112135039,40.7584617219145],"properties":{"NAME":"PS 20","BLDG_ID":"Q020","ADDRESS":"142-30 Barclay Avenue","CITY":"Flushing","ZIP":11355,"Borocode":4,"ACCESSIBLE":"N","X":1033000.36837,"Y":215650.719011,"ACC_FEAT":"","CROSS1":"Bowne Street","CROSS2":"Union Street"}},{"type":"Point","coordinates":[-73.89014993469112,40.72869876387108],"properties":{"NAME":"PS 58","BLDG_ID":"Q058","ADDRESS":"72-24 Grand Avenue","CITY":"Maspeth","ZIP":11378,"Borocode":4,"ACCESSIBLE":"Y","X":1014696.59231,"Y":204777.251913,"ACC_FEAT":"The main/accessible entrance to this location for sheltering purposes is 72-24 Grand Avenue, Queens (Adjacent to the intersection of 72nd Place)","CROSS1":"72 Place","CROSS2":"73 Place"}},{"type":"Point","coordinates":[-73.76677296655954,40.74499023910363],"properties":{"NAME":"IS 74","BLDG_ID":"Q074","ADDRESS":"61-15 Oceania Street","CITY":"Oakland Gardens","ZIP":11362,"Borocode":4,"ACCESSIBLE":"N","X":1048876.05545,"Y":210779.690367,"ACC_FEAT":"","CROSS1":"Horace Harding Expy","CROSS2":"210 Street"}},{"type":"Point","coordinates":[-73.90405242179078,40.6992535700685],"properties":{"NAME":"PS 239","BLDG_ID":"Q239","ADDRESS":"17-15 Weirfield Street","CITY":"Ridgewood","ZIP":11385,"Borocode":4,"ACCESSIBLE":"Y","X":1010855.11213,"Y":194044.954808,"ACC_FEAT":"The main/accessible entrance to this location for sheltering purposes is 17-15 Weirfield Street, Queens (Between Cypress Avenue and Seneca Avenue)","CROSS1":"Cypress Avenue","CROSS2":"Seneca Avenue"}},{"type":"Point","coordinates":[-73.82155976040634,40.67967766424279],"properties":{"NAME":"PS 100","BLDG_ID":"Q100","ADDRESS":"111-11 118 Street","CITY":"South Ozone Park","ZIP":11420,"Borocode":4,"ACCESSIBLE":"N","X":1033743.49647,"Y":186948.719984,"ACC_FEAT":"","CROSS1":"Linden Blvd","CROSS2":"111 Avenue"}},{"type":"Point","coordinates":[-73.92502968338364,40.75608701344545],"properties":{"NAME":"Frank Sinatra HS","BLDG_ID":"Q570","ADDRESS":"35-12 35 Avenue","CITY":"Astoria","ZIP":11101,"Borocode":4,"ACCESSIBLE":"N","X":1005020.73765,"Y":214745.45901,"ACC_FEAT":"","CROSS1":"35 Street","CROSS2":"36 Street"}},{"type":"Point","coordinates":[-73.8970715014392,40.87023333907042],"properties":{"NAME":"Walton HS","BLDG_ID":"X430","ADDRESS":"2780 Reservoir Avenue","CITY":"Bronx","ZIP":10468,"Borocode":2,"ACCESSIBLE":"N","X":1012717.613,"Y":256340.879756,"ACC_FEAT":"","CROSS1":"W 195 Street","CROSS2":"Strong Street"}},{"type":"Point","coordinates":[-73.89723070307248,40.8544420406786],"properties":{"NAME":"IS 391","BLDG_ID":"X137","ADDRESS":"2225 Webster Avenue","CITY":"Bronx","ZIP":10457,"Borocode":2,"ACCESSIBLE":"N","X":1012680.33191,"Y":250587.450646,"ACC_FEAT":"","CROSS1":"E 180 Street","CROSS2":"E 182 Street"}},{"type":"Point","coordinates":[-73.9070057733058,40.83206508725996],"properties":{"NAME":"PS 132","BLDG_ID":"X132","ADDRESS":"1245 Washington Avenue","CITY":"Bronx","ZIP":10456,"Borocode":2,"ACCESSIBLE":"N","X":1009984.82844,"Y":242431.67037,"ACC_FEAT":"","CROSS1":"E 168 Street","CROSS2":"E 169 Street"}},{"type":"Point","coordinates":[-73.90059940647352,40.82738638521927],"properties":{"NAME":"IS 158","BLDG_ID":"X158","ADDRESS":"800 Home Street","CITY":"Bronx","ZIP":10456,"Borocode":2,"ACCESSIBLE":"N","X":1011759.60507,"Y":240728.995626,"ACC_FEAT":"","CROSS1":"Tinton Avenue","CROSS2":"Union Avenue"}},{"type":"Point","coordinates":[-74.2139023434127,40.54195663292899],"properties":{"NAME":"PS 56","BLDG_ID":"R056","ADDRESS":"250 Kramer Avenue","CITY":"Staten Island","ZIP":10309,"Borocode":5,"ACCESSIBLE":"N","X":924798.848878,"Y":136795.544044,"ACC_FEAT":"","CROSS1":"Winant Avenue","CROSS2":"Kramer Avenue"}},{"type":"Point","coordinates":[-74.07907303303918,40.642895287371495],"properties":{"NAME":"Ralph McKee CTE HS","BLDG_ID":"R600","ADDRESS":"290 St Mark's Place","CITY":"Staten Island","ZIP":10301,"Borocode":5,"ACCESSIBLE":"N","X":962306.191186,"Y":173507.368586,"ACC_FEAT":"","CROSS1":"Wall Street","CROSS2":"Fort Place"}},{"type":"Point","coordinates":[-73.87302526724419,40.68931971969759],"properties":{"NAME":"PS 7","BLDG_ID":"K007","ADDRESS":"858 Jamaica Avenue","CITY":"Brooklyn","ZIP":11208,"Borocode":3,"ACCESSIBLE":"N","X":1019463.68087,"Y":190436.711696,"ACC_FEAT":"","CROSS1":"Hemlock Street","CROSS2":"Crescent Street"}},{"type":"Point","coordinates":[-73.98834903626324,40.69464051476038],"properties":{"NAME":"Adams Street Educational Campus","BLDG_ID":"K313","ADDRESS":"283 Adams Street","CITY":"Brooklyn","ZIP":11201,"Borocode":3,"ACCESSIBLE":"N","X":987481.248775,"Y":192349.927686,"ACC_FEAT":"","CROSS1":"Johnson Street","CROSS2":"Willoughby Street"}},{"type":"Point","coordinates":[-73.93644239105953,40.662076202480485],"properties":{"NAME":"IS 391","BLDG_ID":"K391","ADDRESS":"790 East New York Avenue","CITY":"Brooklyn","ZIP":11203,"Borocode":3,"ACCESSIBLE":"N","X":1001883.72686,"Y":180491.996349,"ACC_FEAT":"","CROSS1":"Troy Avenue","CROSS2":"Schenectady Avenue"}},{"type":"Point","coordinates":[-73.93228626844335,40.70146398930419],"properties":{"NAME":"PS 145","BLDG_ID":"K145","ADDRESS":"100 Noll Street","CITY":"Brooklyn","ZIP":11206,"Borocode":3,"ACCESSIBLE":"N","X":1003025.70259,"Y":194842.962726,"ACC_FEAT":"","CROSS1":"Central Avenue","CROSS2":"Evergreen Avenue"}},{"type":"Point","coordinates":[-73.93237497150102,40.68794640182674],"properties":{"NAME":"IS 324","BLDG_ID":"K324","ADDRESS":"800 Gates Avenue","CITY":"Brooklyn","ZIP":11221,"Borocode":3,"ACCESSIBLE":"N","X":1003004.90933,"Y":189918.090358,"ACC_FEAT":"","CROSS1":"Stuyvesant Avenue","CROSS2":"Malcom X Boulevard"}},{"type":"Point","coordinates":[-73.91326145552974,40.67449918845764],"properties":{"NAME":"IS 55","BLDG_ID":"K055","ADDRESS":"2021 Bergen Street","CITY":"Brooklyn","ZIP":11233,"Borocode":3,"ACCESSIBLE":"N","X":1008310.527,"Y":185023.555856,"ACC_FEAT":"","CROSS1":"Thomas Boyland Street","CROSS2":"Rockaway Avenue"}},{"type":"Point","coordinates":[-73.99553454605976,40.621838523489686],"properties":{"NAME":"IS 227","BLDG_ID":"K227","ADDRESS":"6500 16 Avenue","CITY":"Brooklyn","ZIP":11204,"Borocode":3,"ACCESSIBLE":"N","X":985490.036222,"Y":165825.952519,"ACC_FEAT":"","CROSS1":"66 Street","CROSS2":"65 Street"}},{"type":"Point","coordinates":[-73.97679248663479,40.61521425063911],"properties":{"NAME":"PS 226","BLDG_ID":"K226","ADDRESS":"6006 23 Avenue","CITY":"Brooklyn","ZIP":11204,"Borocode":3,"ACCESSIBLE":"N","X":990693.580933,"Y":163413.377948,"ACC_FEAT":"","CROSS1":"60 Street","CROSS2":"61 Street"}},{"type":"Point","coordinates":[-73.95160562639963,40.656423852915744],"properties":{"NAME":"IS 2","BLDG_ID":"K002","ADDRESS":"655 Parkside Avenue","CITY":"Brooklyn","ZIP":11226,"Borocode":3,"ACCESSIBLE":"N","X":997678.000035,"Y":178430.000145,"ACC_FEAT":"","CROSS1":"Nostrand Avenue","CROSS2":"Rogers Avenue"}},{"type":"Point","coordinates":[-73.86551093412334,40.74900359516803],"properties":{"NAME":"PS 207","BLDG_ID":"Q260","ADDRESS":"40-20 100 Street","CITY":"Corona","ZIP":11368,"Borocode":4,"ACCESSIBLE":"N","X":1021514.20827,"Y":212184.458227,"ACC_FEAT":"","CROSS1":"Spruce Avenue","CROSS2":"40 Road"}},{"type":"Point","coordinates":[-74.15902469928052,40.58181956540813],"properties":{"NAME":"Jerome Parker Campus","BLDG_ID":"R043","ADDRESS":"100 Essex Drive","CITY":"Staten Island","ZIP":10314,"Borocode":5,"ACCESSIBLE":"N","X":940077.767467,"Y":151286.086257,"ACC_FEAT":"","CROSS1":"Richmond Hill Road","CROSS2":"Wellington Court"}},{"type":"Point","coordinates":[-73.85273269498542,40.8880652851762],"properties":{"NAME":"IS - HS 362","BLDG_ID":"X362","ADDRESS":"921 E 228 Street","CITY":"Bronx","ZIP":10466,"Borocode":2,"ACCESSIBLE":"N","X":1024969.58325,"Y":262855.270927,"ACC_FEAT":"","CROSS1":"Bronxwood Avenue","CROSS2":"Paulding Avenue"}},{"type":"Point","coordinates":[-74.02434324148936,40.63354965243396],"properties":{"NAME":"PS - IS 30","BLDG_ID":"K331","ADDRESS":"7002 4 Avenue","CITY":"Brooklyn","ZIP":11209,"Borocode":3,"ACCESSIBLE":"Y","X":977493.759564,"Y":170093.535519,"ACC_FEAT":"The main/accessible entrance to this location for sheltering purposes is 7002 4th Avenue, Brooklyn (Close to the intersection with Ovington Avenue)","CROSS1":"Ovington Avenue","CROSS2":"72 Street"}},{"type":"Point","coordinates":[-73.99235222511233,40.73611863303158],"properties":{"NAME":"Clinton School","BLDG_ID":"M868","ADDRESS":"10 E 15 Street","CITY":"New York","ZIP":10003,"Borocode":1,"ACCESSIBLE":"N","X":986369.833347,"Y":207461.5451,"ACC_FEAT":"","CROSS1":"5 Avenue","CROSS2":"Union Square West"}}]}}}